[
  {
    "name": "Hunya",
    "lat": 46.81286974008315,
    "lng":  20.84634644692552,
    "date": "2025-05-08",
    "episode": "518",
    "link": "https://youtu.be/ohB39DXPmeQ?t=176"
  },
  {
    "name": "Barátúr",
    "lat": 46.18845280545244,
    "lng":  18.17486727780507,
    "date": "2025-05-01",
    "episode": "515",
    "link": "https://youtu.be/M-j9aC-jNX0?t=81"
  },
  {
    "name": "Körösszkál",
    "lat": 47.01936025915249,
    "lng": 21.592536422523498,
    "date": "2025-04-24",
    "episode": "510",
    "link": "https://youtu.be/X6EwBHX4u_k?t=482"
  },
  {
    "name": "Tápiószőlős",
    "lat": 47.29226906564887,
    "lng": 19.84262869368044,
    "date": "2025-04-17",
    "episode": "507",
    "link": "https://youtu.be/aOUqc7z84jc?t=296"
  },
  {
    "name": "Márianosztra",
    "lat": 47.86429951228425,
    "lng": 18.871587263462374,
    "date": "2025-04-10",
    "episode": "502",
    "link": "https://youtu.be/yx1nXjPR1WY?t=68"
  },
  {
    "name": "Mérk",
    "lat": 47.78168367240455,
    "lng": 22.376813303878134,
    "date": "2025-04-03",
    "episode": "497",
    "link": "https://youtu.be/MWPQw69qSvM?t=91"
  },
  {
    "name": "Szeghalom",
    "lat": 47.02285403780785,
    "lng": 21.16774072940849,
    "date": "2025-03-27",
    "episode": "492",
    "link": "https://youtu.be/gKs__KFLjFI?t=60"
  },
  {
    "name": "Ököritófülpös",
    "lat": 47.91871318837653,
    "lng": 22.508834189213477,
    "date": "2025-03-20",
    "episode": "487",
    "link": "https://youtu.be/gbe9nSTxvrM?t=1183"
  },
  {
    "name": "Abádszalók",
    "lat": 47.473863301290116,
    "lng": 20.591591977464375,
    "date": "2025-03-13",
    "episode": "482",
    "link": "https://youtu.be/krWqzEHg5Ts?t=51"
  },
  {
    "name": "Kiskunhalas",
    "lat": 46.43426168215751,
    "lng": 19.484215728277494,
    "date": "2025-03-06",
    "episode": "477",
    "link": "https://youtu.be/T4YqmCfZ2sI?t=24"
  },
  {
    "name": "Mezőtúr",
    "lat": 47.00305009279447,
    "lng": 20.61789130698033,
    "date": "2025-02-27",
    "episode": "473",
    "link": "https://youtu.be/cRGlUaTIytE?t=209"
  },
  {
    "name": "Solymár",
    "lat": 47.58997142581395,
    "lng": 18.931767268101975,
    "date": "2025-02-20",
    "episode": "469",
    "link": "https://youtu.be/ev5RQGkQ5hY?t=238"
  },
  {
    "name": "Orosháza",
    "lat": 46.56397870680923,
    "lng": 20.664061619689317,
    "date": "2025-02-13",
    "episode": "464",
    "link": "https://youtu.be/-64ANIh0rzM?t=48"
  },
  {
    "name": "Mesterszállás",
    "lat": 46.956138353447635,
    "lng": 20.427597419082517,
    "date": "2025-02-06",
    "episode": "459",
    "link": "https://youtu.be/bi05V_lhw9s?t=18"
  },
  {
    "name": "Bezenye",
    "lat": 47.960661136886536,
    "lng": 17.21694107045821,
    "date": "2025-01-30",
    "episode": "454",
    "link": "https://youtu.be/p7uMfRvRx-w?t=68"
  },
  {
    "name": "Árpádhalom",
    "lat": 46.61528622323382,
    "lng": 20.547471952337546,
    "date": "2025-01-24",
    "episode": "450",
    "link": "https://www.youtube.com/watch?v=o5Cr-zaWx-s&t=465s"
  },
  {
    "name": "Lácacséke",
    "lat": 48.366730718152176,
    "lng": 21.99239401952598,
    "date": "2025-01-16",
    "episode": "444",
    "link": "https://youtu.be/Xr18WVgfHyE?t=172"
  },
  {
    "name": "Karácsond",
    "lat": 47.7282318,
    "lng": 20.0282487,
    "date": "2024-12-19",
    "episode": "439",
    "link": "https://youtu.be/OPNZpp7jNB0?t=32"
  },
  {
    "name": "Arló",
    "lat": 48.174655,
    "lng": 20.256031,
    "date": "2024-12-12",
    "episode": "434",
    "link": "https://youtu.be/IZOzlKdR-KA?t=36"
  },
  {
    "name": "Elek",
    "lat": 46.5333,
    "lng": 21.2500,
    "date": "2024-12-05",
    "episode": "429",
    "link": "https://youtu.be/2MRtuTCDbSk?t=33"
  },
  {
    "name": "Zsáka",
    "lat": 47.1330,
    "lng": 21.4330,
    "date": "2024-11-28",
    "episode": "424",
    "link": "https://youtu.be/zgbF_UppmxA?t=249"
  },
  {
    "name": "Felsőpakony",
    "lat": 47.34544327863686,
    "lng": 19.237872100518477,
    "date": "2024-11-21",
    "episode": "418",
    "link": "https://youtu.be/Bpd1Ym4a4Aw?t=89"
  },
  {
    "name": "Tömörkény",
    "lat": 46.61749232904201,
    "lng": 20.04350283473456,
    "date": "2024-11-14",
    "episode": "413",
    "link": "https://youtu.be/uf8YspkwZPc?t=479"
  },
  {
    "name": "Jásd",
    "lat": 47.28709,
    "lng": 18.0251,
    "date": "2024-11-07",
    "episode": "408",
    "link": "https://youtu.be/RlHPH64fNKo?t=33"
  },
  {
    "name": "Gyüre",
    "lat": 48.1738096,
    "lng": 22.2700418,
    "date": "2024-10-31",
    "episode": "404",
    "link": "https://youtu.be/in_DxTSxwcQ?t=20"
  },
  {
    "name": "Cún",
    "lat": 45.812601,
    "lng": 18.066396,
    "date": "2024-10-23",
    "episode": "399",
    "link": "https://youtu.be/WV9V6-p79g8?t=105"
  },
  {
    "name": "Létavértes",
    "lat": 47.384742352869,
    "lng": 21.879492809405985,
    "date": "2024-10-17",
    "episode": "395",
    "link": "https://youtu.be/Ijbk99TxcB8?t=191"
  },
  {
    "name": "Mátyásdomb",
    "lat": 46.9228626,
    "lng": 18.3470929,
    "date": "2024-10-11",
    "episode": "391",
    "link": "https://youtu.be/HTa6etFu5dw?t=44"
  },
  {
    "name": "Hódmezővásárhely",
    "lat": 46.4167,
    "lng": 20.3167,
    "date": "2024-10-03",
    "episode": "385",
    "link": "https://youtu.be/toY-wp6K1PM?t=22"
  },
  {
    "name": "Füzér",
    "lat": 48.54017641938213,
    "lng": 21.454928839995283,
    "date": "2024-09-27",
    "episode": "381",
    "link": "https://youtu.be/NC2Nx06dcJw?t=19"
  },
  {
    "name": "Kisbodak",
    "lat": 47.896587009217356,
    "lng": 17.419688188314076,
    "date": "2024-09-19",
    "episode": "375",
    "link": "https://youtu.be/tcjcZLnjY3U?t=56"
  },
  {
    "name": "Miszla",
    "lat": 46.631859530712525,
    "lng": 18.478743143746748,
    "date": "2024-09-12",
    "episode": "370",
    "link": "https://youtu.be/HHP5l2taqoM?t=17"
  },
  {
    "name": "Szank",
    "lat": 46.556387745272346,
    "lng": 19.66575919321347,
    "date": "2024-09-06",
    "episode": "366",
    "link": "https://youtu.be/RS3S5gkywwk?t=16"
  },
  {
    "name": "Szólád",
    "lat": 46.78600482707195,
    "lng": 17.839964549552832,
    "date": "2024-07-18",
    "episode": "363",
    "link": "https://youtu.be/k451Xe56niQ?t=95"
  },
  {
    "name": "Gönc",
    "lat": 48.473119568841895,
    "lng": 21.273225154568667,
    "date": "2024-07-11",
    "episode": "359",
    "link": "https://youtu.be/jZLka9WmAWA?t=14"
  },
  {
    "name": "Mikosszéplak",
    "lat": 47.03217042895237,
    "lng": 16.974214405546753,
    "date": "2024-07-03",
    "episode": "354",
    "link": "https://youtu.be/uJ4mV7BVyZw?t=14"
  },
  {
    "name": "Kercaszomor",
    "lat": 46.78887101105537,
    "lng": 16.351865800455933,
    "date": "2024-06-27",
    "episode": "350",
    "link": "https://youtu.be/-soOcR9ApEM?t=21"
  },
  {
    "name": "Tiszabecs",
    "lat": 48.09846696311255,
    "lng": 22.82132414692474,
    "date": "2024-06-20",
    "episode": "345",
    "link": "https://youtu.be/_t0jDY0ToIs?t=22"
  },
  {
    "name": "Budapest XII. ker.",
    "lat": 47.51060387115805,
    "lng": 18.980769918821146,
    "date": "2024-06-13",
    "episode": "340",
    "link": "https://youtu.be/rKEcNdevObQ?t=15"
  },
  {
    "name": "Kiskőrös",
    "lat": 46.62096822912774,
    "lng": 19.285444332206986,
    "date": "2024-05-30",
    "episode": "330",
    "link": "https://youtu.be/5HeOQE8YFbE?t=91"
  },
  {
    "name": "Bélmegyer",
    "lat": 46.87238990050253,
    "lng": 21.18297629641797,
    "date": "2024-05-23",
    "episode": "325",
    "link": "https://youtu.be/n587-UtiERg?t=16"
  },
  {
    "name": "Vasvár",
    "lat": 47.049660,
    "lng": 16.801934,
    "date": "2024-05-09",
    "episode": "316",
    "link": "https://youtu.be/2fUI83dQHw0?t=15"
  },
  {
    "name": "Fábiánsebestyén",
    "lat": 46.6711,
    "lng": 20.4521,
    "date": "2024-04-18",
    "episode": "302",
    "link": "https://youtu.be/au0xDZn3yxE?t=18"
  },
  {
    "name": "Zádor",
    "lat": 45.9623692,
    "lng": 17.6579278,
    "date": "2024-04-11",
    "episode": "297",
    "link": "https://youtu.be/fznOm7B9HQk?t=36"
  },
  {
    "name": "Jánossomorja",
    "lat": 47.7833,
    "lng": 17.1333,
    "link": "https://youtu.be/XMZQOlrQvF8?t=228",
    "episode": "293",
    "date": "2024-04-05"
  },
  {
    "name": "Kapoly",
    "lat": 46.724974942547504,
    "lng": 17.972866070606006,
    "link": "https://youtu.be/0sSAm7EPu38?t=78",
    "episode": "286",
    "date": "2024-03-23"
  },
  {
    "name": "Pilis",
    "lat": 47.2855,
    "lng": 19.5480,
    "link": "https://youtu.be/JCwqaRkO6oM?t=18",
    "episode": "259",
    "date": "2024-02-10"
  },
  {
    "name": "Zsombó",
    "lat": 46.32454381142973,
    "lng": 19.978262050333832,
    "link": "https://youtu.be/n8vpJ73BtoY?t=20",
    "episode": "254",
    "date": "2024-02-03"
  },
  {
    "name": "Ipacsfa",
    "lat": 45.83421498498406,
    "lng": 18.20514824224081,
    "link": "https://youtu.be/4xUs9G-b3ZE?t=17",
    "episode": "249",
    "date": "2024-01-27"
  },
  {
    "name": "Gádoros",
    "lat": 46.664096803949924,
    "lng": 20.59314515703684,
    "link": "https://youtu.be/Wt2A_dHyrIg?t=16",
    "episode": "248",
    "date": "2024-01-26"
  },
  {
    "name": "Kiskunmajsa",
    "lat": 46.492277347835966,
    "lng": 19.736721046490587,
    "link": "https://youtu.be/XoN3J80plYQ?t=68",
    "episode": "235",
    "date": "2023-12-15"
  },
  {
    "name": "Kisbárapáti",
    "lat": 46.60511333910735,
    "lng": 17.86507602313008,
    "link": "https://youtu.be/5jGUon9QbCg?t=255",
    "episode": "231",
    "date": "2023-12-09"
  },
  {
    "name": "Nagybajom",
    "lat": 46.39038865133711,
    "lng": 17.50932390734026,
    "link": "https://youtu.be/5jGUon9QbCg?t=255",
    "episode": "231",
    "date": "2023-12-09"
  },
  {
    "name": "Dombóvár",
    "lat": 46.3780893279291,
    "lng": 18.138414890125482,
    "link": "https://youtu.be/5jGUon9QbCg?t=255",
    "episode": "231",
    "date": "2023-12-09"
  },
  {
    "name": "Sásd",
    "lat": 46.252690623281666,
    "lng": 18.106678526033505,
    "link": "https://youtu.be/5jGUon9QbCg?t=255",
    "episode": "231",
    "date": "2023-12-09"
  },
  {
    "name": "Zalakaros",
    "lat": 46.556475098896364,
    "lng": 17.121341114895433,
    "link": "https://youtu.be/5jGUon9QbCg?t=255",
    "episode": "231",
    "date": "2023-12-09"
  },
  {
    "name": "Sümeg",
    "lat": 46.9745056803606,
    "lng": 17.284079491943352,
    "link": "https://youtu.be/5jGUon9QbCg?t=255",
    "episode": "231",
    "date": "2023-12-09"
  },
  {
    "name": "Tapolca",
    "lat": 46.880781298805516,
    "lng": 17.439172209136444,
    "link": "https://youtu.be/5jGUon9QbCg?t=255",
    "episode": "231",
    "date": "2023-12-09"
  },
  {
    "name": "Nagyvázsony",
    "lat": 46.98045733577105,
    "lng": 17.693598674929937,
    "link": "https://youtu.be/5jGUon9QbCg?t=255",
    "episode": "231",
    "date": "2023-12-09"
  },
  {
    "name": "Perkáta",
    "lat": 47.044555227635705,
    "lng": 18.78621503648801,
    "link": "https://youtu.be/5jGUon9QbCg?t=255",
    "episode": "231",
    "date": "2023-12-09"
  },
  {
    "name": "Tatárszentgyörgy",
    "lat": 47.075708003223525,
    "lng": 19.367249708589434,
    "link": "https://youtu.be/5jGUon9QbCg?t=255",
    "episode": "231",
    "date": "2023-12-09"
  },
  {
    "name": "Kunbaracs",
    "lat": 46.98560108222411,
    "lng": 19.3908108473765,
    "link": "https://youtu.be/5jGUon9QbCg?t=255",
    "episode": "231",
    "date": "2023-12-09"
  },
  {
    "name": "Kiskunfélegyháza",
    "lat": 46.70382810439533,
    "lng": 19.85004351100692,
    "link": "https://youtu.be/5jGUon9QbCg?t=255",
    "episode": "231",
    "date": "2023-12-09"
  },
  {
    "name": "Kétpó",
    "lat": 47.073959938935744,
    "lng": 20.479898604223813,
    "link": "https://youtu.be/5jGUon9QbCg?t=255",
    "episode": "231",
    "date": "2023-12-09"
  }
]